STATION	LONGITUDE	LATITUDE	NOISE(NM/S)	NOISE(CATEGORY)
1Y.GR01	23.291	41.285	385.598	H
1Y.GR03	24.882	41.150	204.986	H
1Y.GR04	24.964	40.980	448.165	H
1Y.GR05	25.599	40.869	525.093	H
1Y.GR06	26.272	41.339	246.446	H
1Y.GR07	22.021	40.784	182.831	M
1Y.GR09	23.687	40.660	303.736	H
1Y.GR10	21.594	40.483	166.866	M
1Y.GR11	22.190	40.523	201.807	H
1Y.GR12	22.542	40.471	438.370	H
1Y.GR13	23.186	40.352	208.107	H
1Y.GR14	20.579	39.900	1141.685	H
1Y.GR15	21.047	39.941	198.985	M
1Y.GR16	21.938	40.042	261.739	H
1Y.GR17	21.631	39.734	173.014	M
1Y.GR18	22.668	39.728	270.071	H
1Y.GR19B	20.016	39.405	279.913	H
1Y.GR20	21.746	39.235	227.261	H
1Y.GR21	22.513	39.373	1038.896	H
1Y.GR22	22.826	39.089	1845.719	H
1Y.GR23	23.229	38.808	295.981	H
1Y.GR24	22.194	38.689	165.206	M
1Y.GR26	23.411	38.400	307.354	H
1Y.GR27	24.233	38.182	2245.805	H
1Y.GR28	21.140	37.890	852.748	H
1Y.GR29	21.923	37.704	267.240	H
1Y.GR30	22.577	37.522	320.386	H
1Y.GR31	22.521	37.033	552.795	H
1Y.GR32	22.988	36.967	195.502	M
1Y.GR33	22.334	36.762	103.148	M
1Y.MK01A	21.851	42.279	551.677	H
1Y.MK02A	20.884	42.013	586.987	H
1Y.MK03A	21.990	41.196	259.177	H
1Y.MK04A	22.889	41.419	589.356	H
4P.IT01A	8.768	45.379	1061.862	H
4P.IT02A	8.361	45.623	241.625	H
4P.IT03A	8.289	45.238	541.649	H
4P.IT06A	7.880	44.536	272.538	H
4P.IT08A	12.070	44.984	1408.210	H
4P.IT09A	11.436	44.661	792.225	H
9H.HR02A	15.941	44.108	109.256	M
9H.HR03A	15.973	43.861	201.823	H
9H.HR04A	16.281	43.822	86.922	M
9H.HR06A	16.373	43.664	204.020	H
9H.HR07A	16.582	43.825	184.344	M
9H.HR08A	16.611	43.517	511.512	H
9H.HR09A	16.903	43.486	218.184	H
9H.HR10A	17.219	43.342	86.501	M
9H.HR11A	17.374	43.207	67.974	M
9H.HR12A	17.610	42.987	397.714	H
AC.PHP	20.441	41.685	160.235	M
AC.PUK	19.893	42.043	47.937	M
BS.JMB	26.583	42.467	6.204	L
BW.BE1	11.221	47.911	493.901	H
BW.BGDS	13.027	47.635	209.285	H
BW.BHG	12.877	47.721	279.959	H
BW.BIB	11.247	48.152	6806.339	H
BW.FFB1	11.275	48.163	473.420	H
BW.FFB3	11.276	48.165	536.501	H
BW.GELB	11.251	48.163	519.791	H
BW.GRMB	11.264	48.141	684.374	H
BW.KW1	12.597	48.122	1371.092	H
BW.MGS01	11.510	48.067	623.686	H
BW.MGS02	11.588	48.078	5544.891	H
BW.MGS03	11.707	48.071	582.716	H
BW.MGS04	11.719	47.980	530.886	H
BW.MGS05	11.517	48.000	485.358	H
BW.MGSBH	11.639	48.030	522.656	H
BW.RJOB	12.796	47.737	676.102	H
BW.RTSA	12.842	47.768	1023.087	H
BW.SCE	11.709	47.038	37.333	M
BW.TON	11.289	48.174	558.266	H
BW.WRNG	11.731	47.826	518.172	H
C4.CERNS	6.066	46.267	1117.519	H
CH.ACB	8.255	47.588	259.751	H
CH.AIGLE	6.953	46.342	266.176	H
CH.BALST	7.695	47.336	305.807	H
CH.BAULM	6.468	46.787	322.376	H
CH.BERGE	8.178	47.872	264.806	H
CH.BERNI	10.023	46.414	260.655	H
CH.BNALP	8.425	46.870	284.096	H
CH.BOURR	7.230	47.394	371.644	H
CH.BRANT	6.473	46.938	314.409	H
CH.CHAMB	6.612	46.782	287.023	H
CH.CHASS	7.121	47.161	372.447	H
CH.COLLE	6.121	46.292	271.196	H
CH.DAGMA	8.012	47.231	322.080	H
CH.DAVOX	9.880	46.781	266.685	H
CH.DIX	7.408	46.081	219.833	H
CH.EMBD	7.832	46.217	204.406	H
CH.EMING	8.847	47.895	394.669	H
CH.EMMET	8.014	47.438	339.057	H
CH.FIESA	8.111	46.435	261.566	H
CH.FUORN	10.264	46.620	237.414	H
CH.FUSIO	8.663	46.455	228.482	H
CH.GIMEL	6.265	46.534	322.581	H
CH.GRIMS	8.319	46.578	232.087	H
CH.GRYON	7.111	46.251	263.113	H
CH.HASLI	8.151	46.757	259.524	H
CH.HAUIG	7.700	47.660	295.172	H
CH.ILLEZ	6.940	46.219	268.782	H
CH.JAUN	7.291	46.634	348.965	H
CH.LADOL	6.132	46.432	347.560	H
CH.LAUCH	7.772	46.416	288.580	H
CH.LIENZ	9.492	47.294	405.735	H
CH.LKBD2	7.644	46.375	247.950	H
CH.LLS	9.008	46.847	217.268	H
CH.MESRY	6.308	46.347	323.567	H
CH.METMA	8.253	47.712	262.964	H
CH.MFERR	7.112	45.951	217.857	H
CH.MMK	7.964	46.051	193.624	M
CH.MTI02	7.165	47.379	344.369	H
CH.MUGIO	9.042	45.922	256.450	H
CH.MUO	8.637	46.968	323.591	H
CH.MUTEZ	7.649	47.506	319.451	H
CH.NALPS	8.748	46.595	252.603	H
CH.PANIX	9.112	46.826	233.120	H
CH.PERON	5.908	46.191	284.751	H
CH.PLONS	9.381	47.049	239.727	H
CH.ROTHE	7.921	47.476	505.111	H
CH.SAIRA	7.086	47.303	334.960	H
CH.SALAN	6.973	46.144	275.165	H
CH.SALEV	6.097	46.060	412.506	H
CH.SAVIG	5.973	46.066	278.625	H
CH.SENIN	7.299	46.363	255.235	H
CH.SIMPL	8.020	46.240	205.970	H
CH.SLE	8.492	47.764	269.903	H
CH.SULZ	8.112	47.528	281.252	H
CH.TORNY	6.959	46.774	339.362	H
CH.TRULL	8.682	47.649	330.913	H
CH.VANNI	7.597	46.210	264.230	H
CH.VDL	9.449	46.483	207.688	H
CH.VDR	9.166	46.206	215.661	H
CH.VINZL	6.278	46.452	322.134	H
CH.VMV	9.022	46.423	191.675	M
CH.WALHA	9.123	47.753	419.575	H
CH.WGT	8.925	47.098	298.382	H
CH.WILA	8.908	47.415	344.678	H
CH.WIMIS	7.624	46.665	255.331	H
CH.ZUR	8.581	47.369	330.440	H
CL.MALA	21.873	38.393	4429.894	H
CL.MG06	21.946	38.413	182.074	M
CL.PSAM	22.184	38.322	603.551	H
CL.ROD3	21.892	38.308	1012.559	H
CR.DBRK	18.147	42.669	8369.081	H
CR.MORI	15.707	43.866	77.261	M
CR.MOSL	16.754	45.614	203.814	H
CR.OZLJ	15.467	45.615	105.790	M
CR.RIY	14.483	45.325	68.500	M
CR.STON	17.700	42.872	443.033	H
CR.ZAG	15.994	45.829	1134.279	H
CZ.JAVC	17.671	48.859	439.628	H
CZ.KRUC	16.395	49.062	258.551	H
CZ.MAUC	17.828	49.365	0.000	B
CZ.MORC	17.543	49.777	300.846	H
CZ.STAC	15.300	49.030	365.950	H
CZ.VRAC	16.593	49.308	267.934	H
FR.ABJF	0.761	45.574	210.774	H
FR.ADHE	4.770	44.374	581.012	H
FR.AGO	3.132	46.050	257.331	H
FR.AJAC	8.763	41.928	112.681	M
FR.ARBF	5.332	43.492	337.701	H
FR.ARTF	5.807	43.588	223.764	H
FR.BANN	4.156	44.369	332.850	H
FR.BLAF	6.045	43.951	298.078	H
FR.BOUC	6.256	47.247	255.889	H
FR.BRGF	1.771	45.957	220.320	H
FR.BSTF	5.643	43.801	269.732	H
FR.CALF	6.922	43.753	198.759	M
FR.CFF	3.111	45.763	333.844	H
FR.CHAMO	6.860	45.914	224.762	H
FR.CHLF	3.844	46.558	260.787	H
FR.CHMF	6.652	47.248	243.016	H
FR.CLAF	3.090	43.135	204.148	H
FR.CMPS	2.932	45.435	265.845	H
FR.COLF	3.694	45.500	221.316	H
FR.EILF	7.131	43.548	210.647	H
FR.ENAUX	6.777	44.109	220.845	H
FR.ESCA	7.374	43.831	180.584	M
FR.FAHY	5.463	47.505	277.516	H
FR.FOURG	5.811	47.104	258.142	H
FR.FRNF	2.561	45.385	222.335	H
FR.GARF	1.591	46.515	242.319	H
FR.GRN	5.744	45.241	400.768	H
FR.GZNF	2.201	46.174	222.649	H
FR.HOUCH	6.770	45.900	418.248	H
FR.HRSF	2.701	46.521	238.286	H
FR.ILLF	7.254	47.683	369.493	H
FR.ISO	7.050	44.184	158.969	M
FR.LBL	3.246	45.231	227.511	H
FR.LEUC	2.554	44.761	200.323	H
FR.MIGAL	6.033	43.080	230.327	H
FR.MLYF	5.768	43.988	327.415	H
FR.MONQ	1.194	44.367	200.079	H
FR.MORSI	9.363	42.953	123.330	M
FR.MVIF	7.153	43.896	206.919	H
FR.NIMR	7.203	43.680	604.269	H
FR.OG02	6.220	46.154	266.882	H
FR.OG35	5.571	46.045	281.902	H
FR.OGAG	6.540	44.788	212.856	H
FR.OGCB	5.097	44.850	294.264	H
FR.OGCC	5.550	44.429	387.389	H
FR.OGCN	5.089	45.154	425.736	H
FR.OGDF	5.069	44.557	292.207	H
FR.OGDI	6.225	44.109	274.102	H
FR.OGGL	4.611	45.878	239.732	H
FR.OGJA	6.710	44.910	260.584	H
FR.OGLC	6.074	44.370	236.058	H
FR.OGMO	6.683	45.209	195.911	M
FR.OGMY	5.889	45.881	282.745	H
FR.OGRV	4.752	46.346	258.425	H
FR.OGS1	5.805	45.061	496.111	H
FR.OGS3	5.806	45.070	235.106	H
FR.OGSA	6.401	45.037	206.681	H
FR.OGSM	5.697	45.609	259.437	H
FR.OGVA	6.682	46.330	281.816	H
FR.OGVG	6.112	44.815	175.069	M
FR.PIAF	7.617	44.116	122.560	M
FR.PLDF	3.623	45.965	247.253	H
FR.PLYF	4.743	46.957	293.218	H
FR.REST	3.859	43.715	223.704	H
FR.RIVEL	5.922	46.759	274.566	H
FR.RONF	6.645	47.710	254.980	H
FR.RSL	6.625	45.688	210.829	H
FR.RUSF	5.482	43.929	307.219	H
FR.SALSA	6.689	43.881	304.836	H
FR.SAOF	7.554	43.987	134.057	M
FR.SAUF	5.106	43.938	272.272	H
FR.SGSF	3.619	45.048	232.239	H
FR.SLVF	2.164	44.191	185.102	M
FR.SPIF	7.237	44.056	181.906	M
FR.STROF	6.601	43.220	165.120	M
FR.SURF	6.812	44.481	245.989	H
FR.TAMIE	6.306	45.689	282.737	H
FR.TRIGF	6.407	43.747	258.714	H
FR.TURF	7.392	43.975	178.752	M
FR.VERF	2.484	45.750	218.731	H
FR.WALT	7.277	47.966	339.063	H
G.SSB	4.542	45.279	208.164	H
GE.MARCO	15.806	40.297	147.362	M
GE.MATE	16.704	40.649	171.932	M
GE.TIRR	28.413	44.458	266.857	H
GR.FUR	11.277	48.164	496.983	H
GR.GEC2	13.701	48.844	270.725	H
GR.GEC7	13.714	48.835	347.564	H
GR.UBR	10.107	47.680	376.960	H
GU.BHB	7.263	44.836	138.238	M
GU.BLANC	6.934	45.844	437.684	H
GU.BURY	7.557	43.782	218.342	H
GU.CANO	8.237	44.208	137.831	M
GU.CARD	10.482	44.026	373.637	H
GU.CIRO	7.568	45.602	176.467	M
GU.ENR	7.418	44.229	319.337	H
GU.EQUI	10.153	44.166	298.897	H
GU.GBOS	7.840	44.242	117.286	M
GU.GORR	9.293	44.607	242.394	H
GU.GRAM	10.065	44.490	344.393	H
GU.GSCL	10.588	44.351	343.311	H
GU.IMI	7.893	43.910	393.409	H
GU.PCP	8.545	44.541	198.985	M
GU.POPM	10.757	44.045	279.869	H
GU.PZZ	7.116	44.507	196.380	M
GU.REMY	7.157	45.838	7185.949	H
GU.RNCA	8.951	44.471	390.450	H
GU.RORO	8.067	44.112	144.171	M
GU.ROTM	8.353	44.849	517.854	H
GU.RRL	6.791	44.921	251.855	H
GU.RSP	7.265	45.148	104.653	M
GU.STV	7.326	44.245	141.510	M
GU.TRAV	7.747	45.513	195.437	M
HA.ACOR	22.869	37.891	168.973	M
HA.ATAL	23.021	38.693	720.665	H
HA.ATHR	20.416	38.317	3340.874	H
HA.ATHU	23.785	37.967	179.017	M
HA.AXAR	22.659	38.766	168.551	M
HA.DOMV	22.980	38.257	1279.551	H
HA.EPID	23.119	37.614	946.125	H
HA.ERTR	23.786	38.407	179.492	M
HA.HAVD	20.385	38.204	2815.457	H
HA.KALE	22.140	38.391	202.515	H
HA.KARY	24.437	38.032	1094.964	H
HA.LAKA	21.979	38.240	1783.672	H
HA.LOUT	22.974	37.988	1889.441	H
HA.MDRA	23.466	38.061	894.251	H
HA.MRKA	23.586	38.705	228.899	H
HA.MRTH	23.941	38.123	1417.409	H
HA.SERI	24.485	37.161	3779.547	H
HA.SNT1	25.428	36.416	490.413	H
HA.THAL	22.663	38.036	384.549	H
HA.THIV	23.332	38.299	463.665	H
HA.VILL	23.312	38.164	1001.278	H
HC.CHAN	24.043	35.519	456.375	H
HC.GVDS	24.058	34.839	2547.333	H
HC.IMOD	24.799	34.973	422.646	H
HC.IPPL	24.463	35.349	nan	B
HC.KNDR	23.625	35.235	1182.932	H
HC.KNSS	25.180	35.304	563.454	H
HC.KTHR	22.994	36.245	143.562	M
HC.PFKS	25.473	35.043	117.243	M
HC.RODP	23.758	35.560	937.500	H
HC.STIA	26.091	35.202	778.532	H
HC.THNO	25.022	37.654	2217.211	H
HL.ANKY	23.301	35.867	128.211	M
HL.APE	25.523	37.073	204.619	H
HL.ATH	23.718	37.974	115.577	M
HL.GVD	24.087	34.839	356758.108	H
HL.IACM	25.071	35.306	252.180	H
HL.IDI	24.890	35.288	77.587	M
HL.IMMV	23.981	35.461	89.166	M
HL.ITM	21.925	37.179	115.841	M
HL.KEK	19.796	39.713	154.401	M
HL.KLV	22.150	38.044	109.437	M
HL.KSTE	25.337	35.180	11520.744	H
HL.KZN	21.782	40.303	148.765	M
HL.LIA	25.181	39.897	160.420	M
HL.LKR	22.999	38.650	177.232	M
HL.MHLO	24.402	36.690	536.606	H
HL.NEO	23.222	39.306	228.258	H
HL.NISR	27.131	36.611	339.819	H
HL.NISR2	27.177	36.574	0.082	B
HL.NVR	23.865	41.348	165.613	M
HL.ORTH	20.696	37.851	403.987	H
HL.PLG	23.444	40.373	157.726	M
HL.PRAS	24.550	41.352	0.036	B
HL.PTL	23.864	38.047	3676.711	H
HL.RDO	25.536	41.145	182.347	M
HL.RLS	21.465	38.056	324.596	H
HL.SIVA	24.812	35.018	369.723	H
HL.TETR	21.275	39.344	238.565	H
HL.THERA	25.475	36.367	516.052	H
HL.THI2	23.211	38.373	2172.084	H
HL.THL	22.014	39.565	144.064	M
HL.THVA	23.336	38.330	412.289	H
HL.VAM	24.200	35.407	100.046	M
HL.VLI	22.947	36.718	185.830	M
HL.VLS	20.589	38.177	116.835	M
HL.VLY	23.794	37.852	116.422	M
HL.ZKR	26.217	35.115	660.363	H
HP.AMPL	21.213	38.922	156.703	M
HP.AMT	21.709	37.532	128.677	M
HP.ANX	21.921	38.593	0.000	B
HP.AXS	21.376	38.196	194.864	M
HP.DRO	21.710	37.952	110.019	M
HP.DSF	22.527	38.411	170.397	M
HP.EFP	21.906	38.427	195.477	M
HP.FSK	20.562	38.459	148.740	M
HP.GUR	22.342	37.936	178.056	M
HP.KSTR	20.576	39.249	0.006	B
HP.LTHK	20.837	37.709	318.355	H
HP.LTK	22.967	38.023	256.004	H
HP.PDO	21.183	38.599	136.862	M
HP.PLEV	21.407	38.412	127.777	M
HP.PRMD	21.096	39.530	95.508	M
HP.PVO	21.525	38.616	271.841	H
HP.PYL	21.742	36.895	201.828	H
HP.SERG	22.057	38.413	147.028	M
HP.UPR	21.786	38.284	294.190	H
HP.VLX	22.379	37.370	144.635	M
HP.VVK	21.812	38.422	355.214	H
HT.AGG	22.336	39.021	67.871	M
HT.ALN	26.046	40.885	20996.759	H
HT.CMBO	25.406	36.471	937.084	H
HT.DRAG	20.575	38.684	0.834	L
HT.EVGI	20.656	38.621	795.933	H
HT.FLNA	21.386	40.781	1.188	L
HT.GRG	22.401	40.957	463.756	H
HT.HORT	23.100	40.598	119.479	M
HT.IGT	20.330	39.532	141.634	M
HT.KAVA	24.514	40.997	273.499	H
HT.KOKK	23.999	40.818	237.636	H
HT.KPRO	21.363	39.955	177.967	M
HT.KRND	23.150	37.383	206.699	H
HT.LIT	22.489	40.103	148.506	M
HT.LKD2	20.658	38.789	197.732	M
HT.NEST	21.049	40.415	188.278	M
HT.OUR	23.979	40.333	183.260	M
HT.PAIG	23.677	39.936	170.212	M
HT.PSDA	20.584	38.114	330.174	H
HT.RTZL	20.771	38.076	187.558	M
HT.SOH	23.354	40.822	161.979	M
HT.SRS	23.595	41.109	176.382	M
HT.THAS	24.719	40.606	143.885	M
HT.THE	22.963	40.632	706.352	H
HU.ABAH	21.240	48.296	528.932	H
HU.AMBH	20.726	46.350	134.642	M
HU.BEHE	16.776	46.471	1159.265	H
HU.BSZH	20.267	47.300	2059.249	H
HU.BUD	19.020	47.483	319.983	H
HU.CSKK	18.261	47.363	559.349	H
HU.EGYH	17.332	47.416	1038.053	H
HU.KOVH	18.100	46.088	257.515	H
HU.LTVH	21.901	47.385	1522.588	H
HU.MORH	18.644	46.215	215.545	H
HU.MPLH	17.535	47.171	334.216	H
HU.PSZ	19.894	47.918	495.597	H
HU.SOP	16.557	47.681	263.262	H
HU.TRPA	22.539	48.130	600.224	H
IV.ACER	15.943	40.787	253.692	H
IV.AGLI	9.173	41.127	202.414	H
IV.AIO	15.233	37.971	134.984	M
IV.ALJA	13.754	37.749	183.450	M
IV.AMUR	16.604	40.907	138.526	M
IV.AOI	13.602	43.550	398.336	H
IV.APEC	12.420	43.558	438.336	H
IV.APRC	15.543	41.757	153.927	M
IV.ARCI	11.475	42.852	177.104	M
IV.ARVD	12.942	43.498	175.772	M
IV.ASSB	12.659	43.043	181.125	M
IV.ATFO	12.572	43.367	207.175	H
IV.ATPC	12.457	43.481	217.565	H
IV.ATVO	12.407	43.382	274.136	H
IV.BDI	10.597	44.062	185.005	M
IV.BOZZ	10.482	45.107	1497.710	H
IV.BRMO	10.372	46.476	185.561	M
IV.CAAM	14.142	40.820	469.471	H
IV.CAFE	15.237	41.028	475.873	H
IV.CAMP	13.409	42.536	194.765	M
IV.CAPA	15.817	41.158	177.818	M
IV.CASP	10.865	42.791	321.470	H
IV.CAVE	11.003	44.866	558.208	H
IV.CAVT	12.756	37.679	187.749	M
IV.CBAC	14.081	40.811	239.438	H
IV.CDRU	15.305	40.490	127.641	M
IV.CERA	14.018	41.598	214.537	H
IV.CERT	12.982	41.949	136.360	M
IV.CESI	12.905	43.005	199.272	M
IV.CESX	12.587	42.608	171.216	M
IV.CFMN	14.090	40.833	257.914	H
IV.CGL	9.296	39.366	400.676	H
IV.CMIS	14.089	40.778	355.262	H
IV.CMPR	15.303	40.318	120.632	M
IV.CMSN	14.182	40.838	396.838	H
IV.CNIS	14.163	40.798	324.410	H
IV.COLB	14.145	40.819	775.256	H
IV.CPOZ	14.119	40.821	296.069	H
IV.CPTP	14.162	37.407	422.642	H
IV.CRE	11.952	43.619	187.795	M
IV.CRJA	13.004	37.802	568.035	H
IV.CRMI	10.980	43.796	183.266	M
IV.CROCE	14.534	36.833	154.037	M
IV.CRTC	12.883	43.768	308.599	H
IV.CRTO	14.422	40.821	363.477	H
IV.CSFT	14.140	40.829	1.907	L
IV.CSNT	11.290	43.473	177.823	M
IV.CSOB	14.144	40.826	4740.118	H
IV.CSTH	14.149	40.829	296.789	H
IV.DGI	9.607	40.318	132.424	M
IV.ECBD	15.086	37.780	379.598	H
IV.ECHR	14.913	37.686	188.751	M
IV.ECNE	15.002	37.765	2585.639	H
IV.ECPN	14.986	37.744	7549.512	H
IV.ECTS	15.121	37.882	252.518	H
IV.ECZM	14.904	37.731	462.863	H
IV.EFIU	15.210	37.790	132.124	M
IV.EMAS	15.053	37.579	876.638	H
IV.EMCN	15.034	37.791	183.214	M
IV.EMFO	15.090	37.736	519.149	H
IV.EMFS	14.998	37.720	1314.402	H
IV.EMNR	15.026	37.817	409.425	H
IV.EMPL	14.970	37.679	302.074	H
IV.EMSA	14.945	37.498	349.244	H
IV.EMSG	14.950	37.821	144.042	M
IV.ENIC	15.022	37.631	183.475	M
IV.EPMN	15.177	37.820	161.225	M
IV.EPOZ	15.188	37.672	205.810	H
IV.EPZF	14.857	37.824	158.090	M
IV.ESAL	15.134	37.755	175.433	M
IV.ESCV	14.815	37.747	147.096	M
IV.ESML	14.879	37.618	171.522	M
IV.ESPC	15.027	37.693	382.965	H
IV.ESVO	14.947	37.773	1031.241	H
IV.EVRN	15.136	37.689	393.879	H
IV.FAGN	13.584	42.266	173.923	M
IV.FAVA	13.660	37.329	527.554	H
IV.FDMO	13.087	43.036	184.856	M
IV.FIAM	13.117	42.268	151.765	M
IV.FNVD	11.123	44.168	0.213	L
IV.FVI	12.780	46.597	187.299	M
IV.GATE	14.910	41.513	470.535	H
IV.GIB	14.026	37.990	148.366	M
IV.GIGS	13.573	42.453	144.636	M
IV.GIUL	13.255	41.558	nan	B
IV.GIZZ	16.208	38.980	553.029	H
IV.GUMA	13.335	43.063	203.978	H
IV.HMDC	14.783	36.959	122.365	M
IV.HSRS	15.222	37.093	82.333	M
IV.HVIT	14.522	36.993	100.118	M
IV.IFOR	13.855	40.712	574.602	H
IV.IMTC	13.876	40.721	250.038	H
IV.INTR	13.905	42.012	163.563	M
IV.IOCA	13.901	40.747	250.322	H
IV.IPSM	13.944	40.746	902.263	H
IV.IST3	15.230	38.799	1084.883	H
IV.IVGP	14.961	38.397	144.917	M
IV.IVLT	14.948	38.396	134.218	M
IV.LATE	11.804	42.614	176.445	M
IV.LAV9	12.699	41.678	223.203	H
IV.LIBRI	14.929	38.084	96.323	M
IV.LINA	12.864	35.861	44.320	M
IV.LMD	11.707	44.077	173.654	M
IV.LNSS	13.040	42.603	196.985	M
IV.LPEL	14.183	42.047	192.962	M
IV.MA9	12.659	41.770	302.876	H
IV.MABI	10.514	46.055	9.062	L
IV.MAGA	10.629	45.775	253.527	H
IV.MARIO	13.433	37.954	95.790	M
IV.MARS	12.565	37.753	259.169	H
IV.MBAL	10.859	45.698	4735.941	H
IV.MBFT	12.953	37.946	96.586	M
IV.MCT	13.608	37.619	215.596	H
IV.MDI	9.716	45.770	289.062	H
IV.MESG	17.850	40.589	160.566	M
IV.MFNL	12.922	37.791	289.122	H
IV.MGAB	12.112	42.913	172.375	M
IV.MGR	15.554	40.138	170.762	M
IV.MIDA	14.254	41.642	881.383	H
IV.MIGL	16.441	40.604	216.918	H
IV.MILN	9.232	45.480	995.087	H
IV.MILZ	15.231	38.271	354.440	H
IV.MMGO	12.977	37.662	612.794	H
IV.MOCO	15.158	41.370	479.205	H
IV.MOMA	12.570	42.804	218.865	H
IV.MONC	7.927	45.074	404.869	H
IV.MPG	13.360	38.162	131.894	M
IV.MRB1	14.968	41.123	404.013	H
IV.MRCB	15.703	38.162	327.901	H
IV.MRGE	7.061	45.770	228.683	H
IV.MRLC	15.489	40.756	172.742	M
IV.MRVN	16.196	41.061	139.074	M
IV.MSRU	15.508	38.264	96.464	M
IV.MSSA	9.517	44.316	280.785	H
IV.MTCE	12.742	42.023	140.712	M
IV.MTGR	12.759	37.893	0.430	L
IV.MTRZ	11.425	44.313	567.798	H
IV.MTSN	15.752	40.266	146.649	M
IV.MTTG	15.700	38.003	129.722	M
IV.MUCR	14.874	38.043	102.218	M
IV.MURB	12.525	43.263	224.824	H
IV.NARO	12.581	43.611	208.450	H
IV.NDIM	10.899	44.887	494.258	H
IV.NOCI	17.064	40.789	144.824	M
IV.NRCA	13.114	42.834	191.425	M
IV.OFFI	13.686	42.935	449.037	H
IV.OPPE	11.172	45.308	418.687	H
IV.ORI	16.450	40.051	324.990	H
IV.ORZI	9.931	45.406	1048.903	H
IV.OSSC	11.246	43.524	205.703	H
IV.OVO	14.397	40.828	207.456	H
IV.PARC	12.239	43.649	228.980	H
IV.PESA	12.840	43.941	318.635	H
IV.PGEL	11.979	36.794	292.193	H
IV.PGHD	12.040	36.771	959.994	H
IV.PIEI	12.535	43.536	201.175	H
IV.PIGN	14.180	41.200	174.811	M
IV.PII	10.525	43.722	242.626	H
IV.PLAC	16.438	38.449	59.166	M
IV.PLMA	9.854	44.050	154.343	M
IV.POFI	13.712	41.717	108.442	M
IV.PRMA	10.313	44.764	801.513	H
IV.PTCC	13.354	46.407	300.149	H
IV.PTMR	14.035	40.761	379.447	H
IV.PTQR	13.401	42.022	140.223	M
IV.PTRP	16.061	40.521	315.361	H
IV.PZIN	11.973	36.812	508.827	H
IV.PZUN	15.807	40.646	356.528	H
IV.QLNO	8.346	44.324	179.360	M
IV.RMP	12.705	41.812	426.667	H
IV.RNI2	14.152	41.703	280.639	H
IV.ROSPO	14.931	42.236	687.670	H
IV.RSM2	12.445	43.938	607.379	H
IV.SACS	11.910	42.849	186.664	M
IV.SALB	16.346	39.877	135.504	M
IV.SARZ	8.914	44.867	1002.456	H
IV.SCIAC	13.102	37.516	99.940	M
IV.SEI	11.359	44.054	201.220	H
IV.SGO	15.307	40.560	125.502	M
IV.SIRI	15.867	40.182	159.906	M
IV.SNAL	15.209	40.925	238.455	H
IV.SNTG	12.941	43.255	237.570	H
IV.SOLUN	13.533	38.092	275.891	H
IV.SORR	14.336	40.583	175.949	M
IV.SPS2	16.339	39.291	222.958	H
IV.SRES	12.510	42.237	169.913	M
IV.SSFR	12.782	43.436	133.521	M
IV.STAL	12.710	46.260	191.481	M
IV.STRG	15.215	38.810	1693.657	H
IV.TDS	16.338	39.660	279.124	H
IV.TEOL	11.674	45.362	848.681	H
IV.TOLF	12.000	42.064	874.024	H
IV.TREM	15.510	42.123	194.315	M
IV.TRIV	14.550	41.767	331.969	H
IV.TRTR	13.914	42.808	588.301	H
IV.VAGA	14.234	41.415	182.138	M
IV.VARE	8.770	45.868	365.988	H
IV.VBKE	14.439	40.819	263.598	H
IV.VBKN	14.430	40.830	312.706	H
IV.VCRE	14.431	40.819	334.512	H
IV.VISG	11.434	44.189	126.079	M
IV.VITU	14.630	41.183	168.036	M
IV.VIVA	12.770	41.750	577.353	H
IV.VMAN	10.663	45.313	722.641	H
IV.VMGN	11.533	43.955	144.659	M
IV.VTIR	14.424	40.806	132.646	M
IV.VULT	15.616	40.955	246.046	H
IV.ZCCA	10.976	44.351	637.828	H
IX.AND3	15.333	40.930	780.680	H
IX.COL3	15.330	40.687	883.880	H
IX.PGN3	15.797	40.572	456.921	H
IX.RDM3	15.536	40.876	630.088	H
IX.RSF3	15.176	40.964	4267.871	H
IX.SSB3	15.229	41.078	590.075	H
KO.CRLT	27.736	41.129	1118.969	H
KO.EDRB	26.744	41.847	268.194	H
KO.ENEZ	26.153	40.736	640.235	H
KO.ERIK	26.513	40.671	872.572	H
KO.GADA	25.899	40.191	383.610	H
KO.GAZK	27.328	40.748	754.629	H
KO.GELI	26.474	40.398	1042.983	H
KO.PHSR	27.524	41.631	198.106	M
KO.RKY	27.178	40.687	416.470	H
MD.KIS	28.817	46.998	739.740	H
MD.PURM	29.872	46.529	758.826	H
MD.SORM	28.351	48.135	336.342	H
ML.MSDA	14.484	35.901	114.472	M
ML.XLND	14.220	36.032	59.420	M
MN.AQU	13.405	42.354	153.226	M
MN.BLY	17.184	44.749	202.502	H
MN.CUC	15.816	39.994	127.748	M
MN.PDG	19.261	42.430	166.471	M
MN.SENA	9.457	40.444	95.860	M
MN.TUE	9.347	46.472	228.393	H
MN.VLC	10.386	44.159	197.090	M
MN.VSL	9.378	39.496	56.657	M
MN.WDD	14.524	35.837	50.338	M
MT.AVM	5.675	44.942	409.159	H
MT.AVP	5.672	44.941	3496.462	H
MT.AVR	5.653	44.956	460.280	H
NI.POLC	12.501	46.027	5.145	L
NI.VINO	13.275	46.254	237.643	H
OE.ABTA	12.512	46.747	179.764	M
OE.ARSA	15.523	47.251	215.724	H
OE.BIOA	13.638	47.691	252.225	H
OE.CONA	15.862	47.928	334.861	H
OE.CSNA	15.859	47.928	340.414	H
OE.DAVA	9.880	47.287	349.006	H
OE.FETA	10.729	47.021	213.609	H
OE.KBA	13.345	47.078	202.350	H
OE.LESA	12.677	47.424	325.489	H
OE.MOA	14.266	47.849	296.887	H
OE.MOTA	11.104	47.345	304.463	H
OE.MYKA	13.642	46.630	199.531	M
OE.OBKA	14.549	46.509	269.272	H
OE.RETA	10.762	47.487	269.895	H
OE.RONA	16.296	47.700	295.859	H
OE.SOKA	15.033	46.678	226.252	H
OE.SQTA	11.209	47.221	237.612	H
OE.VIE	16.362	48.248	764.614	H
OE.WATA	11.576	47.336	282.074	H
OE.WTTA	11.636	47.264	240.203	H
OT.CGL1	17.517	40.648	36.701	M
OT.TAR1	17.285	40.526	193.115	M
OX.ACOM	13.514	46.548	243.704	H
OX.AGOR	12.047	46.233	171.120	M
OX.BOO	13.098	46.319	221.442	H
OX.CAE	12.438	46.009	333.588	H
OX.CIMO	12.445	46.312	179.217	M
OX.CLUD	12.881	46.457	205.464	H
OX.MPRI	12.988	46.241	289.310	H
OX.VARN	12.105	45.992	260.400	H
PL.NIE	20.300	49.418	671.179	H
RD.FLAF	6.255	43.383	231.484	H
RD.LFF	0.740	44.940	214.137	H
RD.LOR	3.859	47.268	232.089	H
RD.MTLF	2.217	43.341	177.163	M
RD.ORIF	5.880	44.918	185.736	M
RD.PGF	8.999	42.548	113.820	M
RD.RJF	1.516	45.304	198.888	M
RF.GEPF	13.139	46.275	3.671	L
RO.ARCR	24.354	47.086	578.659	H
RO.ARR	24.633	45.366	466.520	H
RO.BAIL	23.345	44.020	4363.747	H
RO.BANR	21.137	45.383	1468.911	H
RO.BIR	27.644	46.233	1978.411	H
RO.BISRR	26.710	45.548	83892.430	H
RO.BMR	23.497	47.673	489.310	H
RO.BOSR	25.661	46.075	1766.715	H
RO.BURAR	25.200	47.644	nan	B
RO.BZS	21.640	45.619	293.886	H
RO.CEIR	22.496	47.685	1437.406	H
RO.CFR	28.136	45.178	298.126	H
RO.CHLR	29.289	45.425	399.578	H
RO.CJR	23.598	46.713	497.137	H
RO.COPA	25.217	44.134	987.541	H
RO.CRAR	23.800	44.325	818.684	H
RO.CVD1	28.062	44.321	840.435	H
RO.DEV	22.898	45.887	370.051	H
RO.DOPR	25.389	45.968	331.499	H
RO.DRGR	22.711	46.792	592.301	H
RO.EFOR	28.632	44.075	396.897	H
RO.GZR	22.777	45.393	306.238	H
RO.HARR	27.930	44.689	2034.781	H
RO.HERR	22.416	44.881	1601.073	H
RO.HUMR	24.980	44.528	187332.534	H
RO.IASR	27.575	47.178	2577.494	H
RO.ICOR	27.801	44.117	1595.392	H
RO.ISR	26.543	45.119	1479.784	H
RO.IZVR	27.765	45.544	742.644	H
RO.JOSR	25.515	46.706	416.018	H
RO.LEHL	26.819	44.474	1539.103	H
RO.LEOM	28.247	46.473	1163.048	H
RO.LOT	23.770	45.446	312.964	H
RO.MDB	24.377	46.150	955.602	H
RO.MDVR	21.713	44.782	967.294	H
RO.MFTR	28.422	44.178	1874.989	H
RO.MLR	25.945	45.491	875.989	H
RO.NARR	26.737	45.816	517.911	H
RO.NEGRR	27.877	45.537	571.638	H
RO.NEHR	26.295	45.427	1693.458	H
RO.ODSR	25.292	46.297	2145.275	H
RO.ONER	26.394	46.335	19.414	L
RO.PANC	27.148	45.872	2059.936	H
RO.PGOR	26.977	44.920	41161.771	H
RO.PLOR	26.650	45.851	547.942	H
RO.PLOR4	26.650	45.851	547.942	H
RO.PRAR	26.234	47.355	4187.476	H
RO.PUNG	22.933	44.278	1979.249	H
RO.RMGR	22.692	44.663	666.655	H
RO.SCHL	27.830	45.501	758.037	H
RO.SCHLR	27.831	45.470	1137.547	H
RO.SCTR	27.995	45.674	650.091	H
RO.SRE	23.204	44.661	1827.442	H
RO.STFAR	24.961	44.863	1633.050	H
RO.SULR	26.253	44.678	2785.615	H
RO.TATR	28.050	45.598	654.182	H
RO.TESR	26.649	46.512	345.813	H
RO.TGMR	24.522	46.528	1291.921	H
RO.TLBR	28.047	44.544	807.760	H
RO.TLCR	28.815	45.186	367.058	H
RO.TNR	24.273	45.652	236.548	H
RO.TPGR	28.420	44.856	941.562	H
RO.TSSL	29.727	45.162	7393.609	H
RO.TUDR	27.669	45.594	4003.696	H
RO.VARL	27.849	45.900	1408.012	H
RO.VASR	27.791	46.642	28.561	M
RO.VLAD	24.404	43.999	816.352	H
RO.VLDR	28.081	45.844	761.703	H
RO.ZIMR	25.365	43.657	382.807	H
SI.ABSI	11.320	46.728	262.706	H
SI.BOSI	11.319	46.495	360.156	H
SI.KOSI	11.378	46.463	169.662	M
SI.LUSI	10.944	45.959	214.894	H
SI.MOSI	10.550	46.616	265.177	H
SI.ROSI	11.412	46.928	240.669	H
SK.KOLS	22.273	48.933	62182.643	H
SK.MODS	17.277	48.373	638.179	H
SK.ZST	17.102	48.196	24242.763	H
SL.BOJS	15.252	45.504	221.201	H
SL.CADS	13.737	46.228	125.920	M
SL.CEY	14.422	45.738	233.313	H
SL.CRES	15.457	45.826	246.143	H
SL.CRNS	14.261	46.081	153.034	M
SL.DOBS	15.470	46.150	330.817	H
SL.GBAS	14.443	45.935	225.699	H
SL.GBRS	14.810	45.531	190.609	M
SL.GCIS	15.627	45.867	279.005	H
SL.GOLS	15.624	46.011	308.940	H
SL.GORS	14.000	46.317	208.794	H
SL.GROS	15.502	46.461	145.658	M
SL.JAVS	14.064	45.893	207.723	H
SL.KNDS	14.381	45.528	241.272	H
SL.KOGS	16.250	46.448	345.489	H
SL.LJU	14.528	46.044	267.871	H
SL.MOZS	14.443	46.294	295.385	H
SL.PDKS	14.998	46.061	718.601	H
SL.PERS	15.114	46.636	228.194	H
SL.ROBS	13.509	46.245	118.182	M
SL.SKDS	14.014	45.546	187.708	M
SL.VISS	14.839	45.803	219.727	H
SL.VNDS	14.701	46.102	330.006	H
SL.VOJS	13.888	46.032	262.992	H
SL.ZAVS	15.025	46.434	258.251	H
ST.DOSS	11.188	45.881	224.672	H
ST.GAGG	10.959	46.084	284.483	H
TV.SU26	8.490	39.123	36.115	M
XP.FR01A	4.072	46.956	298.811	H
XP.FR02A	3.498	46.910	295.429	H
XP.FR03A	3.246	46.612	396.416	H
XP.FR04A	4.582	46.596	286.922	H
XP.FR05A	2.090	46.544	271.011	H
XP.FR06A	3.447	46.378	1855.038	H
XP.FR07A	1.297	46.196	279.065	H
XP.FR08A	4.124	46.203	452.922	H
XP.FR09A	2.630	46.138	276.568	H
XP.FR10A	0.895	45.982	245.885	H
XP.FR12A	1.243	45.745	281.088	H
XP.FR13A	1.962	45.581	267.060	H
XP.FR15A	1.075	45.265	215.670	H
XP.FR16A	3.970	45.273	594.679	H
XP.FR17A	2.259	45.145	255.356	H
XP.FR18A	2.807	44.967	334.373	H
XP.FR19A	1.774	44.944	214.662	H
XP.FR20A	1.246	44.931	351.476	H
XP.FR21A	4.452	44.892	201.644	H
XP.FR22A	3.802	44.646	463.670	H
XP.FR23A	3.340	44.734	265.022	H
XP.FR24A	1.543	44.660	468.862	H
XP.FR25A	2.079	44.603	236.295	H
XP.FR26A	4.575	44.514	1254.982	H
XP.FR27A	2.583	44.396	330.601	H
XP.FR28A	3.129	44.266	246.547	H
XP.FR29A	3.587	44.206	195.993	M
XP.FR30A	1.667	44.056	237.149	H
XP.FR31A	4.528	44.051	266.769	H
XP.FR32A	2.597	44.011	743.234	H
XP.FR33A	2.261	43.803	190.055	M
XP.FR34A	3.352	43.728	717.653	H
XP.FR35A	2.692	43.551	1377.441	H
Y5.BH02A	18.424	43.875	222.705	H
Y5.BH03A	17.689	43.821	266.911	H
Y5.BH04A	17.794	43.348	176.139	M
Y5.BH05A	18.585	43.170	168.813	M
Y5.BH06A	18.446	43.502	276.942	H
Y5.BH07A	18.036	43.751	870.196	H
Y5.BH08A	18.008	44.236	330.445	H
Y5.BH09A	16.616	44.786	1947.619	H
Y5.BH10A	17.166	44.069	385.289	H
Y5.BH12A	17.157	44.393	602.731	H
Y5.BH13A	16.320	44.891	198.108	M
Y5.BH14A	17.657	44.514	134.408	M
Y5.BH15A	18.465	45.058	633.515	H
Y5.BH16A	18.089	44.726	290.350	H
Y5.BH17A	18.551	44.384	1035.221	H
Y5.BH18A	18.997	44.770	305.890	H
Y5.BH19A	19.093	44.398	1359748.571	A
Y5.BH20A	17.662	45.093	2024.237	H
Y8.AVR	27.669	43.119	269.147	H
Y8.BG01A	27.193	43.689	1539.728	H
Y8.BG03A	26.938	43.132	1816.256	H
Y8.BG04A	26.461	42.834	354.626	H
Y8.BG05A	27.199	42.604	1464.434	H
Y8.BG11A	26.255	42.061	339.744	H
Y8.BG12A	26.780	42.118	295.441	H
Y8.BG13A	27.729	42.088	349.153	H
Y8.BG19A	25.956	43.718	694.349	H
Y8.JURR	28.877	44.766	728.851	H
Y8.PL01A	22.684	49.064	1625.368	H
Y8.PL02A	22.537	49.378	830.442	H
Y8.PL03A	22.897	50.022	2371.706	H
Y8.PL05A	22.121	49.260	2140.926	H
Y8.PL06A	22.137	49.594	1358.170	H
Y8.PL07A	22.404	49.943	1706.325	H
Y8.PL08A	22.677	50.376	989.176	H
Y8.PL09A	21.405	49.642	2287.958	H
Y8.PL10A	21.890	49.905	1821.424	H
Y8.PL12A	21.929	50.579	1325.834	H
Y8.PL13A	20.923	49.597	1618.273	H
Y8.PL14A	21.070	49.879	2201.695	H
Y8.PL15A	21.476	50.231	1450.218	H
Y8.PL16A	21.355	50.592	2006.384	H
Y8.PL17A	20.301	49.601	631.637	H
Y8.PL18A	20.506	49.970	1549.586	H
Y8.PL19A	20.944	50.283	645.961	H
Y8.PL21A	19.871	49.558	1049.233	H
Y8.PL22A	20.074	49.836	1762.582	H
Y8.PL23A	20.323	50.234	1178.069	H
Y8.PL24A	19.004	49.724	1043.499	H
Y8.PL26A	19.174	50.190	1142.985	H
Y8.PL27A	18.709	49.902	836.324	H
Y8.PL30A	17.694	50.144	663.073	H
Y8.PL31A	18.354	50.070	829.565	H
Y8.PL32A	19.862	49.294	3322.477	H
Y8.RO01A	23.715	46.235	949.733	H
Y8.RO02A	25.308	46.946	3.461	L
Y8.RO03A	23.876	44.777	1237.923	H
Y8.RO04A	27.447	45.078	2394.975	H
Y8.RO05A	24.314	44.980	1155.953	H
Y8.RO07A	27.109	46.332	1180.014	H
Y8.RO09A	20.904	45.716	1769.261	H
Y8.RO11A	22.813	44.984	471.932	H
Y8.RO12A	25.600	44.583	2158.870	H
Y8.RO13A	24.792	43.830	462.046	H
Y8.RO15A	24.398	44.314	58.115	M
Y8.RO16A	26.575	44.114	3209.342	H
Y8.RO18A	23.215	45.633	591.952	H
Y8.RO19A	23.316	45.152	1010.942	H
Y8.RO20A	22.097	45.388	370.685	H
Y8.RO28A	24.529	46.836	596.855	H
Y8.RO29A	24.996	46.146	906.357	H
Y8.RO30A	25.690	47.211	439.605	H
Y8.RO31A	21.311	46.278	3817.745	H
Y8.RO32A	23.825	47.221	525.309	H
Y8.RO35A	25.854	46.394	495.487	H
Y8.RO36A	25.124	47.340	15.267	L
Y8.RO38A	25.940	47.684	803.801	H
Y8.RO39A	26.646	47.736	5.554	L
Y8.RO43A	26.052	46.624	1251.699	H
Y8.RO44A	25.684	45.218	6506.564	H
Y8.RO45A	27.433	45.450	8767.680	H
Y8.RO46A	27.247	46.612	2743.331	H
Y8.SGRR	25.974	44.223	579.737	H
Z6.A015A	14.994	48.934	303.418	H
Z6.A023A	14.070	48.461	264.211	H
Z6.A025A	14.416	47.521	351.560	H
Z6.A026A	14.551	46.933	230.605	H
Z6.A027A	14.007	46.816	654.788	H
Z6.A028B	13.950	47.095	899.454	H
Z6.A029A	13.761	47.430	235.213	H
Z6.A030A	13.561	47.828	375.069	H
Z6.A031A	13.498	48.427	253.576	H
Z6.A033A	13.126	47.480	190.462	M
Z6.A034A	13.078	46.911	295.526	H
Z6.A035B	12.642	47.160	184.543	M
Z6.A036A	12.309	47.379	96393621.158	A
Z6.A104C	9.657	48.127	348.597	H
Z6.A141A	11.849	47.753	553.321	H
Z6.A143A	11.003	47.684	486.732	H
Z6.A145A	12.391	47.869	482.233	H
Z6.A146A	12.975	48.293	630.722	H
Z6.A148B	12.477	48.509	374.569	H
Z6.A260A	16.706	47.283	636.680	H
Z6.A261A	17.149	46.952	324.897	H
Z6.A262A	16.528	46.864	796.433	H
Z6.A263A	17.315	46.641	386.158	H
Z6.A264A	17.290	46.160	806.275	H
Z6.A265A	17.795	46.424	575.721	H
Z6.A266A	18.265	46.526	930.796	H
Z6.A267A	18.482	46.946	419.087	H
Z6.A271A	18.834	47.155	995.478	H
Z6.A272A	18.965	46.744	1292.987	H
Z6.A273A	17.816	45.916	582.304	H
Z6.A365A	10.733	48.165	542.120	H
Z6.AL01A	19.549	42.346	298.084	H
Z6.AL02A	19.396	41.409	1869.772	H
Z6.AL03A	20.005	41.602	232.242	H
Z6.AL04A	19.562	41.007	6239.961	H
Z6.AL05A	20.392	40.705	267.986	H
Z6.AL06A	19.758	40.089	222.110	H
Z6.AL07A	20.679	40.900	223.816	H
Z6.AL08A	20.102	41.105	261.175	H
Z6.CP00A	19.770	50.117	1700.532	H
Z6.CP01A	19.811	50.016	1510.120	H
Z6.CP02A	19.970	49.909	2686.280	H
Z6.CP03A	20.082	49.747	1410.408	H
Z6.CP04A	20.218	49.656	808.133	H
Z6.CP05A	20.248	49.513	1185.483	H
Z6.CP06A	20.269	49.461	600.332	H
Z6.CP07A	20.297	49.336	784.095	H
Z6.CP08A	20.272	49.272	1107.015	H
Z6.CP09A	20.282	49.164	516.913	H
Z6.CP10A	20.322	49.035	444.712	H
Z6.CP11A	20.265	48.917	461.504	H
Z6.CP12A	20.284	48.790	339.802	H
Z6.CP13A	20.341	48.712	299.578	H
Z6.CP14A	20.467	48.636	319.921	H
Z6.CP15A	20.521	48.557	337.802	H
Z6.CP16A	20.540	48.342	492.468	H
Z6.CP17A	20.511	48.219	467.786	H
Z6.GMRK	21.220	42.659	224.823	H
Z6.HU02A	20.525	48.122	446.934	H
Z6.HU04B	19.439	46.814	485.839	H
Z6.HU10A	19.019	47.845	719.295	H
Z6.HU11A	21.168	47.925	2304.874	H
Z6.HU12A	20.827	47.183	3264.072	H
Z6.HU21A	19.729	46.333	1136.167	H
Z6.HU22A	19.131	46.328	537.274	H
Z6.HU23A	20.250	47.639	2317.451	H
Z6.HU24A	21.159	46.910	2414.631	H
Z6.KKS	20.402	42.073	168.769	M
Z6.ME01A	19.881	42.846	226.591	H
Z6.ME02A	19.122	43.156	237.672	H
Z6.ME03A	19.357	43.350	957.244	H
Z6.ME05A	18.509	42.460	210.569	H
Z6.NKME	18.953	42.767	173.250	M
Z6.PEJK	20.278	42.643	181.785	M
Z6.PVY	19.959	42.594	168.454	M
Z6.SK01A	18.804	49.474	838.054	H
Z6.SK02A	19.304	49.455	2933.604	H
Z6.SK03A	18.861	49.175	518.346	H
Z6.SK11A	20.188	48.849	652.791	H
Z6.SK12A	19.994	48.318	975.997	H
Z6.SK15A	20.511	48.706	374.485	H
Z6.SK17A	21.239	49.207	735.076	H
Z6.SK18A	21.174	48.914	316.233	H
Z6.SK19A	21.933	49.249	1396.302	H
Z6.SK20A	21.609	49.214	1113.898	H
Z6.SK21A	21.997	49.013	1246.459	H
